{
  "areas": [
    {
      "slug": "oita-city",
      "name": "大分市",
      "nameKana": "おおいたし",
      "type": "市",
      "population": "約48万人",
      "description": "大分県の県庁所在地。商業・行政の中心地として多くの企業が集まり、ホームページ需要が高いエリアです。",
      "features": ["県庁所在地", "商業の中心", "大分駅周辺の発展", "IT企業の集積"],
      "keywords": ["大分市 ホームページ制作", "大分市 Web制作", "大分市 HP作成", "大分市 格安ホームページ"],
      "lat": 33.2382,
      "lng": 131.6126
    },
    {
      "slug": "beppu-city",
      "name": "別府市",
      "nameKana": "べっぷし",
      "type": "市",
      "population": "約11万人",
      "description": "日本一の温泉湧出量を誇る観光都市。旅館・ホテル・飲食店のホームページ制作需要が特に高いエリアです。",
      "features": ["温泉観光地", "旅館・ホテル多数", "インバウンド需要", "立命館アジア太平洋大学"],
      "keywords": ["別府市 ホームページ制作", "別府 旅館 ホームページ", "別府 温泉 Web制作", "別府市 格安HP"],
      "lat": 33.2846,
      "lng": 131.4914
    },
    {
      "slug": "nakatsu-city",
      "name": "中津市",
      "nameKana": "なかつし",
      "type": "市",
      "population": "約8万人",
      "description": "福沢諭吉の出身地として知られる歴史ある城下町。製造業や小売業が盛んで、地域密着型のホームページ需要があります。",
      "features": ["中津城", "からあげの聖地", "製造業が盛ん", "福岡県との県境"],
      "keywords": ["中津市 ホームページ制作", "中津市 Web制作", "中津 格安HP", "中津市 会社ホームページ"],
      "lat": 33.5986,
      "lng": 131.1889
    },
    {
      "slug": "hita-city",
      "name": "日田市",
      "nameKana": "ひたし",
      "type": "市",
      "population": "約6万人",
      "description": "「水郷」として知られる自然豊かな都市。林業や観光業が盛んで、伝統工芸品のEC需要も高いエリアです。",
      "features": ["水郷日田", "豆田町の町並み", "日田杉", "小鹿田焼"],
      "keywords": ["日田市 ホームページ制作", "日田 Web制作", "日田市 格安HP", "日田 ECサイト"],
      "lat": 33.3214,
      "lng": 130.9411
    },
    {
      "slug": "saiki-city",
      "name": "佐伯市",
      "nameKana": "さいきし",
      "type": "市",
      "population": "約6万人",
      "description": "九州最東端に位置する海の幸が豊富な港町。水産業や観光業のホームページ制作需要が高いエリアです。",
      "features": ["佐伯寿司", "リアス式海岸", "水産加工業", "歴史的町並み"],
      "keywords": ["佐伯市 ホームページ制作", "佐伯 Web制作", "佐伯市 格安HP", "佐伯 飲食店HP"],
      "lat": 32.9601,
      "lng": 131.8994
    },
    {
      "slug": "usuki-city",
      "name": "臼杵市",
      "nameKana": "うすきし",
      "type": "市",
      "population": "約3.5万人",
      "description": "国宝臼杵石仏で有名な歴史都市。醸造業や観光業が盛んで、伝統産業のブランディング需要があります。",
      "features": ["臼杵石仏", "醤油・味噌醸造", "城下町", "有機農業"],
      "keywords": ["臼杵市 ホームページ制作", "臼杵 Web制作", "臼杵市 格安HP", "臼杵 醸造 HP"],
      "lat": 33.1258,
      "lng": 131.8047
    },
    {
      "slug": "tsukumi-city",
      "name": "津久見市",
      "nameKana": "つくみし",
      "type": "市",
      "population": "約1.5万人",
      "description": "セメント産業と水産業の町。みかんの産地としても知られ、地域産業のPR用ホームページ需要があります。",
      "features": ["セメント産業", "津久見みかん", "マグロ養殖", "保戸島"],
      "keywords": ["津久見市 ホームページ制作", "津久見 Web制作", "津久見市 格安HP", "津久見 企業HP"],
      "lat": 33.0728,
      "lng": 131.8614
    },
    {
      "slug": "taketa-city",
      "name": "竹田市",
      "nameKana": "たけたし",
      "type": "市",
      "population": "約2万人",
      "description": "岡城跡や長湯温泉で知られる歴史と温泉の町。観光業や農業のホームページ制作需要があります。",
      "features": ["岡城跡", "長湯温泉", "高原野菜", "滝廉太郎ゆかりの地"],
      "keywords": ["竹田市 ホームページ制作", "竹田 Web制作", "竹田市 格安HP", "竹田 温泉旅館HP"],
      "lat": 32.9736,
      "lng": 131.3967
    },
    {
      "slug": "bungotakada-city",
      "name": "豊後高田市",
      "nameKana": "ぶんごたかだし",
      "type": "市",
      "population": "約2万人",
      "description": "「昭和の町」で有名な観光都市。商店街活性化や観光PRのホームページ需要が高いエリアです。",
      "features": ["昭和の町", "富貴寺", "真玉海岸", "そば"],
      "keywords": ["豊後高田市 ホームページ制作", "豊後高田 Web制作", "豊後高田市 格安HP", "豊後高田 観光HP"],
      "lat": 33.5569,
      "lng": 131.4458
    },
    {
      "slug": "kitsuki-city",
      "name": "杵築市",
      "nameKana": "きつきし",
      "type": "市",
      "population": "約2.5万人",
      "description": "サンドイッチ型城下町として知られる歴史都市。着物レンタルや観光業のホームページ需要があります。",
      "features": ["城下町", "着物の似合う町", "杵築城", "みかん"],
      "keywords": ["杵築市 ホームページ制作", "杵築 Web制作", "杵築市 格安HP", "杵築 観光HP"],
      "lat": 33.4164,
      "lng": 131.6169
    },
    {
      "slug": "usa-city",
      "name": "宇佐市",
      "nameKana": "うさし",
      "type": "市",
      "population": "約5万人",
      "description": "宇佐神宮の門前町として発展。農業や観光業が盛んで、地域ブランドのPR需要があります。",
      "features": ["宇佐神宮", "からあげ発祥の地", "農業", "安心院ワイン"],
      "keywords": ["宇佐市 ホームページ制作", "宇佐 Web制作", "宇佐市 格安HP", "宇佐 神社HP"],
      "lat": 33.5319,
      "lng": 131.3494
    },
    {
      "slug": "bungoono-city",
      "name": "豊後大野市",
      "nameKana": "ぶんごおおのし",
      "type": "市",
      "population": "約3万人",
      "description": "ユネスコエコパークに認定された自然豊かな地域。農業や観光業のホームページ制作需要があります。",
      "features": ["原尻の滝", "ジオパーク", "有機農業", "神楽"],
      "keywords": ["豊後大野市 ホームページ制作", "豊後大野 Web制作", "豊後大野市 格安HP", "豊後大野 農業HP"],
      "lat": 32.9783,
      "lng": 131.5856
    },
    {
      "slug": "yufu-city",
      "name": "由布市",
      "nameKana": "ゆふし",
      "type": "市",
      "population": "約3万人",
      "description": "由布院温泉で全国的に有名な観光都市。旅館・ホテル・カフェのホームページ制作需要が非常に高いエリアです。",
      "features": ["由布院温泉", "金鱗湖", "アート・カフェ文化", "由布岳"],
      "keywords": ["由布市 ホームページ制作", "由布院 旅館 ホームページ", "由布市 格安HP", "湯布院 Web制作"],
      "lat": 33.1797,
      "lng": 131.3706
    },
    {
      "slug": "kunisaki-city",
      "name": "国東市",
      "nameKana": "くにさきし",
      "type": "市",
      "population": "約2.5万人",
      "description": "国東半島の中心都市。六郷満山文化や農業が盛んで、文化財PRや農産物販売のHP需要があります。",
      "features": ["六郷満山", "太陽光発電", "七島藺", "タコ"],
      "keywords": ["国東市 ホームページ制作", "国東 Web制作", "国東市 格安HP", "国東 農業HP"],
      "lat": 33.5658,
      "lng": 131.7328
    },
    {
      "slug": "hiji-town",
      "name": "日出町",
      "nameKana": "ひじまち",
      "type": "町",
      "population": "約2.8万人",
      "description": "別府湾に面した城下町。城下かれいや暘谷城で知られ、飲食店や観光施設のホームページ需要があります。",
      "features": ["城下かれい", "暘谷城跡", "ハーモニーランド", "別府湾"],
      "keywords": ["日出町 ホームページ制作", "日出 Web制作", "日出町 格安HP", "日出 飲食店HP"],
      "lat": 33.3697,
      "lng": 131.5317
    },
    {
      "slug": "kokonoe-town",
      "name": "九重町",
      "nameKana": "ここのえまち",
      "type": "町",
      "population": "約8千人",
      "description": "九重連山と温泉で知られる高原の町。観光施設や宿泊施設のホームページ制作需要があります。",
      "features": ["九重夢大吊橋", "筋湯温泉", "飯田高原", "久住高原"],
      "keywords": ["九重町 ホームページ制作", "九重 Web制作", "九重町 格安HP", "九重 温泉HP"],
      "lat": 33.1906,
      "lng": 131.1631
    },
    {
      "slug": "kusu-town",
      "name": "玖珠町",
      "nameKana": "くすまち",
      "type": "町",
      "population": "約1.4万人",
      "description": "童話の里として知られる自然豊かな町。伐株山や万年山が有名で、観光PRのホームページ需要があります。",
      "features": ["童話の里", "伐株山", "万年山", "三日月の滝"],
      "keywords": ["玖珠町 ホームページ制作", "玖珠 Web制作", "玖珠町 格安HP", "玖珠 観光HP"],
      "lat": 33.2867,
      "lng": 131.1569
    },
    {
      "slug": "himeshima-village",
      "name": "姫島村",
      "nameKana": "ひめしまむら",
      "type": "村",
      "population": "約1.8千人",
      "description": "大分県唯一の村で、国東半島沖に浮かぶ離島。漁業や観光業のホームページ制作需要があります。",
      "features": ["姫島七不思議", "車えび養殖", "アサギマダラ", "キツネ踊り"],
      "keywords": ["姫島村 ホームページ制作", "姫島 Web制作", "姫島村 格安HP", "姫島 観光HP"],
      "lat": 33.7267,
      "lng": 131.6456
    }
  ]
}
